{"type":"FeatureCollection", "features": [
{"type":"Feature","geometry":{"type":"Point","coordinates":[78.7278257,17.3320276,0]},"properties":{"name":"Entry Gate","description":"Where this is the Main Entrance Point ","styleUrl":"#icon-1899-0288D1","icon-opacity":1,"icon-color":"#0288d1","icon-scale":1,"icon-offset":[32,64],"icon-offset-units":["pixels","insetPixels"],"icon":"https://www.gstatic.com/mapspro/images/stock/503-wht-blank_maps.png"}},
{"type":"Feature","geometry":{"type":"Point","coordinates":[78.7269044,17.332184,0]},"properties":{"name":"Canteen","description":"Main Canteen","styleUrl":"#icon-1899-0288D1","icon-opacity":1,"icon-color":"#0288d1","icon-scale":1,"icon-offset":[32,64],"icon-offset-units":["pixels","insetPixels"],"icon":"https://www.gstatic.com/mapspro/images/stock/503-wht-blank_maps.png"}},
{"type":"Feature","geometry":{"type":"Point","coordinates":[78.7278857,17.3310959,0]},"properties":{"name":"Hostel Block","description":{"@type":"html","value":"Hostel's - Demo Room's"},"styleUrl":"#icon-1899-0288D1","icon-opacity":1,"icon-color":"#0288d1","icon-scale":1,"icon-offset":[32,64],"icon-offset-units":["pixels","insetPixels"],"icon":"https://www.gstatic.com/mapspro/images/stock/503-wht-blank_maps.png"}},
{"type":"Feature","geometry":{"type":"Point","coordinates":[78.7286166,17.3308211,0]},"properties":{"name":"A One Block","styleUrl":"#icon-1899-0288D1-nodesc","icon-opacity":1,"icon-color":"#0288d1","icon-scale":1,"icon-offset":[32,64],"icon-offset-units":["pixels","insetPixels"],"icon":"https://www.gstatic.com/mapspro/images/stock/503-wht-blank_maps.png"}},
{"type":"Feature","geometry":{"type":"Point","coordinates":[78.7267728,17.3318903,0]},"properties":{"name":"Rent a Bike Facility","styleUrl":"#icon-1899-0288D1-nodesc","icon-opacity":1,"icon-color":"#0288d1","icon-scale":1,"icon-offset":[32,64],"icon-offset-units":["pixels","insetPixels"],"icon":"https://www.gstatic.com/mapspro/images/stock/503-wht-blank_maps.png"}},
{"type":"Feature","geometry":{"type":"Point","coordinates":[78.726444,17.3319076,0]},"properties":{"name":"Multi-Disciplinary Play and Fitness Complex","styleUrl":"#icon-1899-0288D1-nodesc","icon-opacity":1,"icon-color":"#0288d1","icon-scale":1,"icon-offset":[32,64],"icon-offset-units":["pixels","insetPixels"],"icon":"https://www.gstatic.com/mapspro/images/stock/503-wht-blank_maps.png"}},
{"type":"Feature","geometry":{"type":"Point","coordinates":[78.72589,17.3319703,0]},"properties":{"name":"Central Library","description":"Digital Library","styleUrl":"#icon-1899-0288D1","icon-opacity":1,"icon-color":"#0288d1","icon-scale":1,"icon-offset":[32,64],"icon-offset-units":["pixels","insetPixels"],"icon":"https://www.gstatic.com/mapspro/images/stock/503-wht-blank_maps.png"}},
{"type":"Feature","geometry":{"type":"Point","coordinates":[78.7254836,17.3324094,0]},"properties":{"name":"M B A and Law Block","styleUrl":"#icon-1899-0288D1-nodesc","icon-opacity":1,"icon-color":"#0288d1","icon-scale":1,"icon-offset":[32,64],"icon-offset-units":["pixels","insetPixels"],"icon":"https://www.gstatic.com/mapspro/images/stock/503-wht-blank_maps.png"}},
{"type":"Feature","geometry":{"type":"Point","coordinates":[78.7260858,17.3321418,0]},"properties":{"name":"A T M Facility","styleUrl":"#icon-1899-0288D1-nodesc","icon-opacity":1,"icon-color":"#0288d1","icon-scale":1,"icon-offset":[32,64],"icon-offset-units":["pixels","insetPixels"],"icon":"https://www.gstatic.com/mapspro/images/stock/503-wht-blank_maps.png"}},
{"type":"Feature","geometry":{"type":"Point","coordinates":[78.7259442,17.330607,0]},"properties":{"name":"Cricket Ground, Gymnasium, and Indoor Games","styleUrl":"#icon-1899-0288D1-nodesc","icon-opacity":1,"icon-color":"#0288d1","icon-scale":1,"icon-offset":[32,64],"icon-offset-units":["pixels","insetPixels"],"icon":"https://www.gstatic.com/mapspro/images/stock/503-wht-blank_maps.png"}},
{"type":"Feature","geometry":{"type":"Point","coordinates":[78.7275125,17.3312355,0]},"properties":{"name":"Hostel Block","styleUrl":"#icon-1899-0288D1-nodesc","icon-opacity":1,"icon-color":"#0288d1","icon-scale":1,"icon-offset":[32,64],"icon-offset-units":["pixels","insetPixels"],"icon":"https://www.gstatic.com/mapspro/images/stock/503-wht-blank_maps.png"}},
{"type":"Feature","geometry":{"type":"Point","coordinates":[78.7262502,17.3310929,0]},"properties":{"name":"Cricket Ground, Gymnasium, and Indoor Games","styleUrl":"#icon-1899-0288D1-nodesc","icon-opacity":1,"icon-color":"#0288d1","icon-scale":1,"icon-offset":[32,64],"icon-offset-units":["pixels","insetPixels"],"icon":"https://www.gstatic.com/mapspro/images/stock/503-wht-blank_maps.png"}},
{"type":"Feature","geometry":{"type":"Point","coordinates":[78.7253728,17.3311377,0]},"properties":{"name":"Girl's Hostel","styleUrl":"#icon-1899-0288D1-nodesc","icon-opacity":1,"icon-color":"#0288d1","icon-scale":1,"icon-offset":[32,64],"icon-offset-units":["pixels","insetPixels"],"icon":"https://www.gstatic.com/mapspro/images/stock/503-wht-blank_maps.png"}},
{"type":"Feature","geometry":{"type":"Point","coordinates":[78.7251521,17.3303493,0]},"properties":{"name":"Boy's Hostel","styleUrl":"#icon-1899-0288D1-nodesc","icon-opacity":1,"icon-color":"#0288d1","icon-scale":1,"icon-offset":[32,64],"icon-offset-units":["pixels","insetPixels"],"icon":"https://www.gstatic.com/mapspro/images/stock/503-wht-blank_maps.png"}},
{"type":"Feature","geometry":{"type":"Point","coordinates":[78.7245287,17.3313922,0]},"properties":{"name":"Mini - Parking Area","styleUrl":"#icon-1899-0288D1-nodesc","icon-opacity":1,"icon-color":"#0288d1","icon-scale":1,"icon-offset":[32,64],"icon-offset-units":["pixels","insetPixels"],"icon":"https://www.gstatic.com/mapspro/images/stock/503-wht-blank_maps.png"}},
{"type":"Feature","geometry":{"type":"Point","coordinates":[78.7243262,17.3316023,0]},"properties":{"name":"Admission Room","styleUrl":"#icon-1899-0288D1-nodesc","icon-opacity":1,"icon-color":"#0288d1","icon-scale":1,"icon-offset":[32,64],"icon-offset-units":["pixels","insetPixels"],"icon":"https://www.gstatic.com/mapspro/images/stock/503-wht-blank_maps.png"}},
{"type":"Feature","geometry":{"type":"Point","coordinates":[78.7243304,17.3319623,0]},"properties":{"name":"University Block","styleUrl":"#icon-1899-0288D1-nodesc","icon-opacity":1,"icon-color":"#0288d1","icon-scale":1,"icon-offset":[32,64],"icon-offset-units":["pixels","insetPixels"],"icon":"https://www.gstatic.com/mapspro/images/stock/503-wht-blank_maps.png"}},
{"type":"Feature","geometry":{"type":"Point","coordinates":[78.723607,17.3309915,0]},"properties":{"name":"Rehab Block and Hospital","styleUrl":"#icon-1899-0288D1-nodesc","icon-opacity":1,"icon-color":"#0288d1","icon-scale":1,"icon-offset":[32,64],"icon-offset-units":["pixels","insetPixels"],"icon":"https://www.gstatic.com/mapspro/images/stock/503-wht-blank_maps.png"}},
{"type":"Feature","geometry":{"type":"Point","coordinates":[78.723206,17.3313386,0]},"properties":{"name":"Sensory Park","styleUrl":"#icon-1899-0288D1-nodesc","icon-opacity":1,"icon-color":"#0288d1","icon-scale":1,"icon-offset":[32,64],"icon-offset-units":["pixels","insetPixels"],"icon":"https://www.gstatic.com/mapspro/images/stock/503-wht-blank_maps.png"}},
{"type":"Feature","geometry":{"type":"Point","coordinates":[78.7230652,17.3311581,0]},"properties":{"name":"Swimming Pool","styleUrl":"#icon-1899-0288D1-nodesc","icon-opacity":1,"icon-color":"#0288d1","icon-scale":1,"icon-offset":[32,64],"icon-offset-units":["pixels","insetPixels"],"icon":"https://www.gstatic.com/mapspro/images/stock/503-wht-blank_maps.png"}},
{"type":"Feature","geometry":{"type":"Point","coordinates":[78.7236271,17.3314142,0]},"properties":{"name":"Amphitheatre","styleUrl":"#icon-1899-0288D1-nodesc","icon-opacity":1,"icon-color":"#0288d1","icon-scale":1,"icon-offset":[32,64],"icon-offset-units":["pixels","insetPixels"],"icon":"https://www.gstatic.com/mapspro/images/stock/503-wht-blank_maps.png"}},
{"type":"Feature","geometry":{"type":"Point","coordinates":[78.7269858,17.3314512,0]},"properties":{"name":"Main Block","styleUrl":"#icon-1899-0288D1-nodesc","icon-opacity":1,"icon-color":"#0288d1","icon-scale":1,"icon-offset":[32,64],"icon-offset-units":["pixels","insetPixels"],"icon":"https://www.gstatic.com/mapspro/images/stock/503-wht-blank_maps.png"}}
]}